{"type":"FeatureCollection","features":[{"type":"Feature","geometry":{"type":"Point","coordinates":[-122.3134505,47.65957]},"properties":{"name":"Bugis","rating":4.3,"reviews":185,"phone":"+12065471918","address":"4241 NE University Way","city":"Seattle","state":"WA","country":"US","postcode":"98105"}},{"type":"Feature","geometry":{"type":"Point","coordinates":[-122.312814,47.665441]},"properties":{"name":"Morsel","rating":4.5,"reviews":1217,"phone":"+12062680154","address":"5000 University Way NE","city":"Seattle","state":"WA","country":"US","postcode":"98105"}},{"type":"Feature","geometry":{"type":"Point","coordinates":[-122.30121,47.663563]},"properties":{"name":"M Cozy Fusion Cafe","rating":4.2,"reviews":86,"phone":"+12065882849","address":"4715 25th Ave NE","city":"Seattle","state":"WA","country":"US","postcode":"98105"}},{"type":"Feature","geometry":{"type":"Point","coordinates":[-122.29969,47.66164]},"properties":{"name":"JOEY University Village","rating":3.9,"reviews":1229,"phone":"+12065276188","address":"2603 NE 46th St","city":"Seattle","state":"WA","country":"US","postcode":"98105"}},{"type":"Feature","geometry":{"type":"Point","coordinates":[-122.3134455,47.6602009959]},"properties":{"name":"North Noodles N Dumplings","rating":4.5,"reviews":40,"phone":"+12065456823","address":"4311 University Way NE","city":"Seattle","state":"WA","country":"US","postcode":"98105"}},{"type":"Feature","geometry":{"type":"Point","coordinates":[-122.29909,47.6619]},"properties":{"name":"Eureka!","rating":4,"reviews":973,"phone":"+12068129655","address":"2614 NE 46th St","city":"Seattle","state":"WA","country":"US","postcode":"98105"}},{"type":"Feature","geometry":{"type":"Point","coordinates":[-122.31657,47.66143]},"properties":{"name":"Angkor Wok","rating":4.5,"reviews":91,"phone":"+12064208951","address":"1100 NE 45th St","city":"Seatttle","state":"WA","country":"US","postcode":"98105"}},{"type":"Feature","geometry":{"type":"Point","coordinates":[-122.3176468531,47.6577037075]},"properties":{"name":"Portage Bay Cafe","rating":3.9,"reviews":2872,"phone":"+12065478230","address":"4130 Roosevelt Way NE","city":"Seattle","state":"WA","country":"US","postcode":"98105"}},{"type":"Feature","geometry":{"type":"Point","coordinates":[-122.3132197364,47.6681582]},"properties":{"name":"Xi'an Noodles","rating":4.2,"reviews":1130,"phone":"+12065228888","address":"5259 University Way NE","city":"Seattle","state":"WA","country":"US","postcode":"98105"}},{"type":"Feature","geometry":{"type":"Point","coordinates":[-122.3134541,47.6596096]},"properties":{"name":"Nuodle Express","rating":4.4,"reviews":21,"phone":"+12067753333","address":"4245 University Way NE","city":"Seattle","state":"WA","country":"US","postcode":"98105"}},{"type":"Feature","geometry":{"type":"Point","coordinates":[-122.3132683,47.66243]},"properties":{"name":"Time Bistro","rating":4.5,"reviews":100,"phone":"+12064208826","address":"4537B University Way NE","city":"Seattle","state":"WA","country":"US","postcode":"98105"}},{"type":"Feature","geometry":{"type":"Point","coordinates":[-122.314514,47.664349]},"properties":{"name":"Itadakimasu","rating":4.1,"reviews":433,"phone":"+12066590722","address":"4743 Brooklyn Ave NE","city":"Seattle","state":"WA","country":"US","postcode":"98105"}},{"type":"Feature","geometry":{"type":"Point","coordinates":[-122.295246,47.668618]},"properties":{"name":"Pancita","rating":4.5,"reviews":36,"phone":"+12065267655","address":"5501 30th Ave NE","city":"Seattle","state":"WA","country":"US","postcode":"98105"}},{"type":"Feature","geometry":{"type":"Point","coordinates":[-122.298156858,47.664759222]},"properties":{"name":"Arepa Venezuelan Kitchen","rating":4.5,"reviews":421,"phone":"+12065564879","address":"1405 NE 50th St","city":"Seattle","state":"WA","country":"US","postcode":"98105"}},{"type":"Feature","geometry":{"type":"Point","coordinates":[-122.3133464,47.6599202]},"properties":{"name":"Off the Rez","rating":4.3,"reviews":272,"phone":"+12064148226","address":"4300 15th Ave NE","city":"Seattle","state":"WA","country":"US","postcode":"98101"}},{"type":"Feature","geometry":{"type":"Point","coordinates":[-122.29924,47.66251]},"properties":{"name":"Ma'ono Fried Chicken","rating":3.9,"reviews":459,"phone":"+12064995470","address":"4626 26th Ave NE","city":"Seattle","state":"WA","country":"US","postcode":"98105"}},{"type":"Feature","geometry":{"type":"Point","coordinates":[-122.30066,47.6612]},"properties":{"name":"Sureshot Espresso","rating":4.5,"reviews":45,"phone":"+12065676337","address":"2624 NE 46th St Ste 1","city":"Seattle","state":"WA","country":"US","postcode":"98105"}},{"type":"Feature","geometry":{"type":"Point","coordinates":[-122.29936,47.66182]},"properties":{"name":"Chipotle Mexican Grill","rating":3.8,"reviews":622,"phone":"+12065485400","address":"4730 University Way NE","city":"Seattle","state":"WA","country":"US","postcode":"98105"}},{"type":"Feature","geometry":{"type":"Point","coordinates":[-122.3140725,47.6641931]},"properties":{"name":"Thai 65 Cafe","rating":4.1,"reviews":215,"phone":"+12067253753","address":"4523 University Way NE","city":"Seattle","state":"WA","country":"US","postcode":"98105"}},{"type":"Feature","geometry":{"type":"Point","coordinates":[-122.3176469,47.6577037]},"properties":{"name":"Cafe on the Ave","rating":3.8,"reviews":650,"phone":"+12065473777","address":"4201 University Way NE","city":"Seattle","state":"WA","country":"US","postcode":"98105"}}]}